{
  "departments": [
    {
      "ida": "1",
      "name": "Cardiology",
      "head": "Dr. Smith",
      "location": "Building A, Floor 2",
      "phoneNumber": "123-456-7890"
    },
    {
      "id": "2",
      "name": "Orthopedics",
      "head": "Dr. Johnson",
      "location": "Building B, Floor 3",
      "phoneNumber": "987-654-3210"
    },
    {
      "id": "3",
      "name": "Neurology",
      "head": "Dr. Williams",
      "location": "Building C, Floor 4",
      "phoneNumber": "555-123-4567"
    },
    {
      "id": "4",
      "name": "Oncology",
      "head": "Dr. Brown",
      "location": "Building D, Floor 5",
      "phoneNumber": "333-888-9999"
    },
    {
      "id": "5",
      "name": "Pediatrics",
      "head": "Dr. Martinez",
      "location": "Building E, Floor 6",
      "phoneNumber": "777-444-3333"
    },
    {
      "id": "6",
      "name": "Dermatology",
      "head": "Dr. Garcia",
      "location": "Building F, Floor 7",
      "phoneNumber": "222-333-4444"
    },
    {
      "id": "7",
      "name": "Gynecology",
      "head": "Dr. Taylor",
      "location": "Building G, Floor 8",
      "phoneNumber": "666-999-8888"
    },
    {
      "id": "8",
      "name": "Urology",
      "head": "Dr. Perez",
      "location": "Building H, Floor 9",
      "phoneNumber": "555-777-1111"
    },
    {
      "id": "9",
      "name": "Psychiatry",
      "head": "Dr. Rodriguez",
      "location": "Building I, Floor 10",
      "phoneNumber": "999-333-2222"
    }
  ]
}
